===== Auto mode command: 
===== Arm command: MISSION BEGINS 
===== time sleep 30 seconds BEGINS 
ATTITUDE {time_boot_ms : 1256383, roll : -0.018668754026293755, pitch : 0.009386962279677391, yaw : 1.326069712638855, rollspeed : 0.0011111651547253132, pitchspeed : -0.001236872747540474, yawspeed : 0.001142892986536026}
VFR_HUD {airspeed : 0.06300000101327896, groundspeed : 0.03666995093226433, heading : 75, throttle : 0, alt : 48.70000076293945, climb : 0.0006020310684107244}
AHRS2 {roll : -0.03222465515136719, pitch : -0.015958135947585106, yaw : 1.3499715328216553, altitude : 48.97999954223633, lat : 364301251, lng : 1274000890}
COMMAND_ACK {command : 176, result : 0, progress : 0, result_param2 : 0, target_system : 255, target_component : 0}
HEARTBEAT {type : 10, autopilot : 3, base_mode : 9, custom_mode : 10, system_status : 4, mavlink_version : 3}
COMMAND_ACK {command : 400, result : 0, progress : 0, result_param2 : 0, target_system : 255, target_component : 0}
STATUSTEXT {severity : 6, text : Mission: 1 WP, id : 0, chunk_seq : 0}
STATUSTEXT {severity : 4, text : Warning: Arming Checks Disabled, id : 0, chunk_seq : 0}
STATUSTEXT {severity : 6, text : Throttle armed, id : 0, chunk_seq : 0}
GLOBAL_POSITION_INT {time_boot_ms : 1256643, lat : 364301252, lon : 1274000875, alt : 48730, relative_alt : -69, vx : 0, vy : 4, vz : 0, hdg : 7596}
SYS_STATUS {onboard_control_sensors_present : 321969199, onboard_control_sensors_enabled : 52485167, onboard_control_sensors_health : 53533999, load : 135, voltage_battery : 7060, current_battery : 0, battery_remaining : 100, drop_rate_comm : 0, errors_comm : 0, errors_count1 : 0, errors_count2 : 0, errors_count3 : 0, errors_count4 : 0}
POWER_STATUS {Vcc : 5004, Vservo : 6053, flags : 1}
MEMINFO {brkval : 0, freemem : 65535, freemem32 : 219432}
NAV_CONTROLLER_OUTPUT {nav_roll : 0.0, nav_pitch : 0.0, nav_bearing : 284, target_bearing : 286, wp_dist : 9, alt_error : 0.0, aspd_error : 0.0, xtrack_error : -0.005022249184548855}
MISSION_CURRENT {seq : 1}
SERVO_OUTPUT_RAW {time_usec : 1256643725, port : 0, servo1_raw : 1517, servo2_raw : 0, servo3_raw : 1560, servo4_raw : 0, servo5_raw : 0, servo6_raw : 0, servo7_raw : 0, servo8_raw : 0, servo9_raw : 0, servo10_raw : 0, servo11_raw : 0, servo12_raw : 0, servo13_raw : 0, servo14_raw : 0, servo15_raw : 0, servo16_raw : 0}
RC_CHANNELS {time_boot_ms : 1256643, chancount : 16, chan1_raw : 1483, chan2_raw : 1496, chan3_raw : 1496, chan4_raw : 1538, chan5_raw : 1100, chan6_raw : 1100, chan7_raw : 1100, chan8_raw : 1500, chan9_raw : 1900, chan10_raw : 1500, chan11_raw : 1500, chan12_raw : 1500, chan13_raw : 1500, chan14_raw : 1500, chan15_raw : 1500, chan16_raw : 1500, chan17_raw : 0, chan18_raw : 0, rssi : 255}
RAW_IMU {time_usec : 1256643830, xacc : -18, yacc : 32, zacc : -1001, xgyro : -2, ygyro : 0, zgyro : 0, xmag : 39, ymag : -421, zmag : 350, id : 0, temperature : 3925}
SCALED_IMU2 {time_boot_ms : 1256643, xacc : -10, yacc : 32, zacc : -1002, xgyro : 0, ygyro : 0, zgyro : -1, xmag : 189, ymag : -352, zmag : 307, temperature : 2900}
SCALED_PRESSURE {time_boot_ms : 1256643, press_abs : 1020.8041381835938, press_diff : 0.0, temperature : 3358, temperature_press_diff : 0}
GPS_RAW_INT {time_usec : 1256616000, fix_type : 4, lat : 364301251, lon : 1274000897, alt : 33950, eph : 64, epv : 85, vel : 2, cog : 7771, satellites_visible : 18, alt_ellipsoid : 53970, h_acc : 781, v_acc : 1014, vel_acc : 183, hdg_acc : 0, yaw : 0}
SYSTEM_TIME {time_unix_usec : 1680492050627728, time_boot_ms : 1256663}
AHRS {omegaIx : 0.002152752596884966, omegaIy : 3.9491620555054396e-05, omegaIz : -0.00046531815314665437, accel_weight : 0.0, renorm_val : 0.0, error_rp : 0.02639075182378292, error_yaw : 0.0015982905169948936}
HWSTATUS {Vcc : 5009, I2Cerr : 0}
MOUNT_STATUS {target_system : 0, target_component : 0, pointing_a : 0, pointing_b : 0, pointing_c : 0, mount_mode : 3}
EKF_STATUS_REPORT {flags : 831, velocity_variance : 0.007190171629190445, pos_horiz_variance : 0.03172030672430992, pos_vert_variance : 0.02869011089205742, compass_variance : 0.0006749102612957358, terrain_alt_variance : 0.0, airspeed_variance : 0.0}
LOCAL_POSITION_NED {time_boot_ms : 1256664, x : -15.541698455810547, y : -3.229311466217041, z : -0.032633282244205475, vx : 0.007842960767447948, vy : 0.04706507921218872, vz : -0.0073021817952394485}
VIBRATION {time_usec : 1256664203, vibration_x : 0.03803589195013046, vibration_y : 0.056885942816734314, vibration_z : 0.06149009242653847, clipping_0 : 19, clipping_1 : 13, clipping_2 : 0}
POSITION_TARGET_GLOBAL_INT {time_boot_ms : 1256664, coordinate_frame : 0, type_mask : 65016, lat_int : 364301491, lon_int : 1273999856, alt : 100.0, vx : 0.0, vy : 0.0, vz : 0.0, afx : 0.0, afy : 0.0, afz : 0.0, yaw : 0.0, yaw_rate : 0.0}
BATTERY_STATUS {id : 0, battery_function : 0, type : 0, temperature : 32767, voltages : [7060, 65535, 65535, 65535, 65535, 65535, 65535, 65535, 65535, 65535], current_battery : 0, current_consumed : 0, energy_consumed : 0, battery_remaining : 100, time_remaining : 0, charge_state : 1, voltages_ext : [0, 0, 0, 0], mode : 0, fault_bitmask : 0}
ATTITUDE {time_boot_ms : 1256664, roll : -0.018238114193081856, pitch : 0.009550410322844982, yaw : 1.3260570764541626, rollspeed : 0.0004369203234091401, pitchspeed : 0.00024276922340504825, yawspeed : -0.0005429507582448423}
VFR_HUD {airspeed : 0.021000001579523087, groundspeed : 0.04771408438682556, heading : 75, throttle : 8, alt : 48.72999954223633, climb : 0.0073021817952394485}
AHRS2 {roll : -0.03191537410020828, pitch : -0.016515810042619705, yaw : 1.3498982191085815, altitude : 49.07999801635742, lat : 364301251, lng : 1274000894}
ATTITUDE {time_boot_ms : 1256883, roll : -0.01443912461400032, pitch : 0.01057826541364193, yaw : 1.3266587257385254, rollspeed : 0.024612169712781906, pitchspeed : 0.015966318547725677, yawspeed : 0.006604911759495735}
VFR_HUD {airspeed : 0.03500000014901161, groundspeed : 0.1757311224937439, heading : 76, throttle : 17, alt : 48.75, climb : 0.01775433123111725}
AHRS2 {roll : -0.028584403917193413, pitch : -0.015260755084455013, yaw : 1.3505744934082031, altitude : 49.119998931884766, lat : 364301252, lng : 1274000900}
HEARTBEAT {type : 10, autopilot : 3, base_mode : 137, custom_mode : 10, system_status : 4, mavlink_version : 3}
RC_CHANNELS_SCALED {time_boot_ms : 1257103, port : 0, chan1_scaled : -1418, chan2_scaled : 0, chan3_scaled : 3197, chan4_scaled : 0, chan5_scaled : 0, chan6_scaled : 0, chan7_scaled : 0, chan8_scaled : 0, rssi : 255}
GLOBAL_POSITION_INT {time_boot_ms : 1257122, lat : 364301252, lon : 1274000889, alt : 48780, relative_alt : -17, vx : 8, vy : 30, vz : -2, hdg : 7621}
SYS_STATUS {onboard_control_sensors_present : 321969199, onboard_control_sensors_enabled : 52485167, onboard_control_sensors_health : 53533999, load : 139, voltage_battery : 6857, current_battery : 0, battery_remaining : 100, drop_rate_comm : 0, errors_comm : 0, errors_count1 : 0, errors_count2 : 0, errors_count3 : 0, errors_count4 : 0}
POWER_STATUS {Vcc : 4980, Vservo : 6085, flags : 1}
MEMINFO {brkval : 0, freemem : 65535, freemem32 : 220856}
NAV_CONTROLLER_OUTPUT {nav_roll : 0.0, nav_pitch : 0.0, nav_bearing : 282, target_bearing : 286, wp_dist : 9, alt_error : 0.0, aspd_error : 0.0, xtrack_error : -0.04017799347639084}
MISSION_CURRENT {seq : 1}
SERVO_OUTPUT_RAW {time_usec : 1257123272, port : 0, servo1_raw : 1554, servo2_raw : 0, servo3_raw : 1577, servo4_raw : 0, servo5_raw : 0, servo6_raw : 0, servo7_raw : 0, servo8_raw : 0, servo9_raw : 0, servo10_raw : 0, servo11_raw : 0, servo12_raw : 0, servo13_raw : 0, servo14_raw : 0, servo15_raw : 0, servo16_raw : 0}
RC_CHANNELS {time_boot_ms : 1257123, chancount : 16, chan1_raw : 1483, chan2_raw : 1496, chan3_raw : 1496, chan4_raw : 1538, chan5_raw : 1100, chan6_raw : 1100, chan7_raw : 1100, chan8_raw : 1500, chan9_raw : 1900, chan10_raw : 1500, chan11_raw : 1500, chan12_raw : 1500, chan13_raw : 1500, chan14_raw : 1500, chan15_raw : 1500, chan16_raw : 1500, chan17_raw : 0, chan18_raw : 0, rssi : 255}
RAW_IMU {time_usec : 1257123331, xacc : 33, yacc : -7, zacc : -1044, xgyro : -24, ygyro : 34, zgyro : 12, xmag : 33, ymag : -415, zmag : 356, id : 0, temperature : 3925}
SCALED_IMU2 {time_boot_ms : 1257123, xacc : 44, yacc : 5, zacc : -1051, xgyro : -23, ygyro : 32, zgyro : 12, xmag : 169, ymag : -340, zmag : 333, temperature : 2900}
SCALED_PRESSURE {time_boot_ms : 1257123, press_abs : 1020.8071899414062, press_diff : 0.0, temperature : 3358, temperature_press_diff : 0}
GPS_RAW_INT {time_usec : 1257016000, fix_type : 4, lat : 364301254, lon : 1274000904, alt : 33930, eph : 64, epv : 85, vel : 21, cog : 7184, satellites_visible : 18, alt_ellipsoid : 53951, h_acc : 770, v_acc : 991, vel_acc : 176, hdg_acc : 0, yaw : 0}
SYSTEM_TIME {time_unix_usec : 1680492051106867, time_boot_ms : 1257143}
AHRS {omegaIx : 0.0021510093938559294, omegaIy : 3.060723975067958e-05, omegaIz : -0.0004631060583051294, accel_weight : 0.0, renorm_val : 0.0, error_rp : 0.03177669271826744, error_yaw : 0.004627613350749016}
HWSTATUS {Vcc : 4982, I2Cerr : 0}
MOUNT_STATUS {target_system : 0, target_component : 0, pointing_a : 0, pointing_b : 0, pointing_c : 0, mount_mode : 3}
EKF_STATUS_REPORT {flags : 831, velocity_variance : 0.01285113487392664, pos_horiz_variance : 0.03330742195248604, pos_vert_variance : 0.027729051187634468, compass_variance : 0.006651909556239843, terrain_alt_variance : 0.0, airspeed_variance : 0.0}
LOCAL_POSITION_NED {time_boot_ms : 1257143, x : -15.52698802947998, y : -3.0982141494750977, z : -0.08427257835865021, vx : 0.08335662633180618, vy : 0.32151153683662415, vz : -0.010365517809987068}
VIBRATION {time_usec : 1257143503, vibration_x : 0.5800222158432007, vibration_y : 0.5179198384284973, vibration_z : 0.9889978766441345, clipping_0 : 19, clipping_1 : 13, clipping_2 : 0}
POSITION_TARGET_GLOBAL_INT {time_boot_ms : 1257143, coordinate_frame : 0, type_mask : 65016, lat_int : 364301491, lon_int : 1273999856, alt : 100.0, vx : 0.0, vy : 0.0, vz : 0.0, afx : 0.0, afy : 0.0, afz : 0.0, yaw : 0.0, yaw_rate : 0.0}
BATTERY_STATUS {id : 0, battery_function : 0, type : 0, temperature : 32767, voltages : [6857, 65535, 65535, 65535, 65535, 65535, 65535, 65535, 65535, 65535], current_battery : 0, current_consumed : 0, energy_consumed : 0, battery_remaining : 100, time_remaining : 0, charge_state : 1, voltages_ext : [0, 0, 0, 0], mode : 0, fault_bitmask : 0}
ATTITUDE {time_boot_ms : 1257143, roll : -0.012210210785269737, pitch : 0.016305407509207726, yaw : 1.329977035522461, rollspeed : -0.0032546811271458864, pitchspeed : 0.0672229528427124, yawspeed : 0.009870427660644054}
VFR_HUD {airspeed : 0.21800000965595245, groundspeed : 0.3321415185928345, heading : 76, throttle : 14, alt : 48.779998779296875, climb : 0.010365517809987068}
AHRS2 {roll : -0.026645604521036148, pitch : -0.008720960468053818, yaw : 1.3540858030319214, altitude : 49.099998474121094, lat : 364301255, lng : 1274000907}
ATTITUDE {time_boot_ms : 1257383, roll : -0.01686464250087738, pitch : 0.010741619393229485, yaw : 1.3250364065170288, rollspeed : -0.0004009387921541929, pitchspeed : -0.013782372698187828, yawspeed : -0.014886043965816498}
VFR_HUD {airspeed : 0.23600001633167267, groundspeed : 0.40847909450531006, heading : 75, throttle : 12, alt : 48.79999923706055, climb : 0.02626170590519905}
AHRS2 {roll : -0.032705359160900116, pitch : -0.014726752415299416, yaw : 1.349652886390686, altitude : 49.20000076293945, lat : 364301260, lng : 1274000916}
GLOBAL_POSITION_INT {time_boot_ms : 1257622, lat : 364301259, lon : 1274000914, alt : 48820, relative_alt : 29, vx : 13, vy : 43, vz : -1, hdg : 7531}
SYS_STATUS {onboard_control_sensors_present : 321969199, onboard_control_sensors_enabled : 52485167, onboard_control_sensors_health : 53533999, load : 136, voltage_battery : 7045, current_battery : 0, battery_remaining : 100, drop_rate_comm : 0, errors_comm : 0, errors_count1 : 0, errors_count2 : 0, errors_count3 : 0, errors_count4 : 0}
POWER_STATUS {Vcc : 4980, Vservo : 6058, flags : 1}
MEMINFO {brkval : 0, freemem : 65535, freemem32 : 215672}
NAV_CONTROLLER_OUTPUT {nav_roll : 0.0, nav_pitch : 0.0, nav_bearing : 274, target_bearing : 285, wp_dist : 9, alt_error : 0.0, aspd_error : 0.0, xtrack_error : -0.1777539998292923}
MISSION_CURRENT {seq : 1}
SERVO_OUTPUT_RAW {time_usec : 1257623213, port : 0, servo1_raw : 1578, servo2_raw : 0, servo3_raw : 1569, servo4_raw : 0, servo5_raw : 0, servo6_raw : 0, servo7_raw : 0, servo8_raw : 0, servo9_raw : 0, servo10_raw : 0, servo11_raw : 0, servo12_raw : 0, servo13_raw : 0, servo14_raw : 0, servo15_raw : 0, servo16_raw : 0}
RC_CHANNELS {time_boot_ms : 1257623, chancount : 16, chan1_raw : 1483, chan2_raw : 1496, chan3_raw : 1496, chan4_raw : 1538, chan5_raw : 1100, chan6_raw : 1100, chan7_raw : 1100, chan8_raw : 1500, chan9_raw : 1900, chan10_raw : 1500, chan11_raw : 1500, chan12_raw : 1500, chan13_raw : 1500, chan14_raw : 1500, chan15_raw : 1500, chan16_raw : 1500, chan17_raw : 0, chan18_raw : 0, rssi : 255}
RAW_IMU {time_usec : 1257623315, xacc : 3, yacc : 51, zacc : -1021, xgyro : -17, ygyro : 11, zgyro : -57, xmag : 38, ymag : -413, zmag : 372, id : 0, temperature : 3925}
SCALED_IMU2 {time_boot_ms : 1257623, xacc : 14, yacc : 67, zacc : -1022, xgyro : -14, ygyro : 13, zgyro : -56, xmag : 190, ymag : -340, zmag : 301, temperature : 2900}
SCALED_PRESSURE {time_boot_ms : 1257623, press_abs : 1020.7869873046875, press_diff : 0.0, temperature : 3358, temperature_press_diff : 0}
GPS_RAW_INT {time_usec : 1257416000, fix_type : 4, lat : 364301263, lon : 1274000920, alt : 33930, eph : 64, epv : 85, vel : 36, cog : 6084, satellites_visible : 18, alt_ellipsoid : 53951, h_acc : 760, v_acc : 976, vel_acc : 187, hdg_acc : 0, yaw : 0}
SYSTEM_TIME {time_unix_usec : 1680492051587403, time_boot_ms : 1257623}
AHRS {omegaIx : 0.0021318700164556503, omegaIy : 3.2198167900787666e-05, omegaIz : -0.00046457498683594167, accel_weight : 0.0, renorm_val : 0.0, error_rp : 0.03417101874947548, error_yaw : 0.0040078554302453995}
HWSTATUS {Vcc : 4980, I2Cerr : 0}
MOUNT_STATUS {target_system : 0, target_component : 0, pointing_a : 0, pointing_b : 0, pointing_c : 0, mount_mode : 3}
EKF_STATUS_REPORT {flags : 831, velocity_variance : 0.031071674078702927, pos_horiz_variance : 0.034578241407871246, pos_vert_variance : 0.02754000388085842, compass_variance : 0.00039030463085509837, terrain_alt_variance : 0.0, airspeed_variance : 0.0}
LOCAL_POSITION_NED {time_boot_ms : 1257643, x : -15.449498176574707, y : -2.8671224117279053, z : -0.13099391758441925, vx : 0.1342984139919281, vy : 0.42265352606773376, vz : -0.028579754754900932}
VIBRATION {time_usec : 1257643509, vibration_x : 0.7446958422660828, vibration_y : 0.7803720831871033, vibration_z : 1.0204020738601685, clipping_0 : 19, clipping_1 : 13, clipping_2 : 0}
POSITION_TARGET_GLOBAL_INT {time_boot_ms : 1257643, coordinate_frame : 0, type_mask : 65016, lat_int : 364301491, lon_int : 1273999856, alt : 100.0, vx : 0.0, vy : 0.0, vz : 0.0, afx : 0.0, afy : 0.0, afz : 0.0, yaw : 0.0, yaw_rate : 0.0}
BATTERY_STATUS {id : 0, battery_function : 0, type : 0, temperature : 32767, voltages : [7045, 65535, 65535, 65535, 65535, 65535, 65535, 65535, 65535, 65535], current_battery : 0, current_consumed : 0, energy_consumed : 0, battery_remaining : 100, time_remaining : 0, charge_state : 1, voltages_ext : [0, 0, 0, 0], mode : 0, fault_bitmask : 0}
ATTITUDE {time_boot_ms : 1257643, roll : -0.019239285960793495, pitch : 0.014450030401349068, yaw : 1.3134115934371948, rollspeed : -0.027965979650616646, pitchspeed : -0.018798479810357094, yawspeed : -0.06130731478333473}
VFR_HUD {airspeed : 0.36000001430511475, groundspeed : 0.44347724318504333, heading : 75, throttle : 10, alt : 48.82999801635742, climb : 0.028579754754900932}
AHRS2 {roll : -0.0350772924721241, pitch : -0.011016703210771084, yaw : 1.3381060361862183, altitude : 49.279998779296875, lat : 364301267, lng : 1274000930}
ATTITUDE {time_boot_ms : 1257884, roll : -0.01585419662296772, pitch : 0.02055864781141281, yaw : 1.3001434803009033, rollspeed : 0.012121016159653664, pitchspeed : -0.009194903075695038, yawspeed : -0.022434480488300323}
VFR_HUD {airspeed : 0.3140000104904175, groundspeed : 0.4445146322250366, heading : 74, throttle : 10, alt : 48.849998474121094, climb : 0.022080615162849426}
AHRS2 {roll : -0.030404405668377876, pitch : -0.0034385223407298326, yaw : 1.3248651027679443, altitude : 49.34000015258789, lat : 364301273, lng : 1274000937}
HEARTBEAT {type : 10, autopilot : 3, base_mode : 137, custom_mode : 10, system_status : 4, mavlink_version : 3}
RC_CHANNELS_SCALED {time_boot_ms : 1258102, port : 0, chan1_scaled : -1831, chan2_scaled : 0, chan3_scaled : 2790, chan4_scaled : 0, chan5_scaled : 0, chan6_scaled : 0, chan7_scaled : 0, chan8_scaled : 0, rssi : 255}
GLOBAL_POSITION_INT {time_boot_ms : 1258122, lat : 364301269, lon : 1274000939, alt : 48880, relative_alt : 86, vx : 15, vy : 38, vz : -3, hdg : 7341}
SYS_STATUS {onboard_control_sensors_present : 321969199, onboard_control_sensors_enabled : 52485167, onboard_control_sensors_health : 53533999, load : 141, voltage_battery : 6966, current_battery : 0, battery_remaining : 100, drop_rate_comm : 0, errors_comm : 0, errors_count1 : 0, errors_count2 : 0, errors_count3 : 0, errors_count4 : 0}
POWER_STATUS {Vcc : 4980, Vservo : 6068, flags : 1}
MEMINFO {brkval : 0, freemem : 65535, freemem32 : 215672}
NAV_CONTROLLER_OUTPUT {nav_roll : 0.0, nav_pitch : 0.0, nav_bearing : 260, target_bearing : 284, wp_dist : 10, alt_error : 0.0, aspd_error : 0.0, xtrack_error : -0.3473862409591675}
MISSION_CURRENT {seq : 1}
SERVO_OUTPUT_RAW {time_usec : 1258123270, port : 0, servo1_raw : 1574, servo2_raw : 0, servo3_raw : 1567, servo4_raw : 0, servo5_raw : 0, servo6_raw : 0, servo7_raw : 0, servo8_raw : 0, servo9_raw : 0, servo10_raw : 0, servo11_raw : 0, servo12_raw : 0, servo13_raw : 0, servo14_raw : 0, servo15_raw : 0, servo16_raw : 0}
RC_CHANNELS {time_boot_ms : 1258123, chancount : 16, chan1_raw : 1483, chan2_raw : 1496, chan3_raw : 1496, chan4_raw : 1538, chan5_raw : 1100, chan6_raw : 1100, chan7_raw : 1100, chan8_raw : 1500, chan9_raw : 1900, chan10_raw : 1500, chan11_raw : 1500, chan12_raw : 1500, chan13_raw : 1500, chan14_raw : 1500, chan15_raw : 1500, chan16_raw : 1500, chan17_raw : 0, chan18_raw : 0, rssi : 255}
RAW_IMU {time_usec : 1258123328, xacc : -47, yacc : 48, zacc : -1017, xgyro : -25, ygyro : -8, zgyro : -98, xmag : 45, ymag : -411, zmag : 403, id : 0, temperature : 3926}
SCALED_IMU2 {time_boot_ms : 1258123, xacc : -39, yacc : 59, zacc : -1025, xgyro : -23, ygyro : -8, zgyro : -98, xmag : 210, ymag : -343, zmag : 365, temperature : 2900}
SCALED_PRESSURE {time_boot_ms : 1258123, press_abs : 1020.7760620117188, press_diff : 0.0, temperature : 3359, temperature_press_diff : 0}
GPS_RAW_INT {time_usec : 1258016000, fix_type : 4, lat : 364301275, lon : 1274000941, alt : 33960, eph : 64, epv : 85, vel : 37, cog : 5643, satellites_visible : 18, alt_ellipsoid : 53981, h_acc : 755, v_acc : 969, vel_acc : 212, hdg_acc : 0, yaw : 0}
SYSTEM_TIME {time_unix_usec : 1680492052106878, time_boot_ms : 1258143}
AHRS {omegaIx : 0.0021080265287309885, omegaIy : 5.6771004892652854e-05, omegaIz : -0.0004701556172221899, accel_weight : 0.0, renorm_val : 0.0, error_rp : 0.03649987280368805, error_yaw : 0.005066271871328354}
HWSTATUS {Vcc : 4980, I2Cerr : 0}
MOUNT_STATUS {target_system : 0, target_component : 0, pointing_a : 0, pointing_b : 0, pointing_c : 0, mount_mode : 3}
EKF_STATUS_REPORT {flags : 831, velocity_variance : 0.023804843425750732, pos_horiz_variance : 0.024604588747024536, pos_vert_variance : 0.04240749403834343, compass_variance : 0.0006914291880093515, terrain_alt_variance : 0.0, airspeed_variance : 0.0}
LOCAL_POSITION_NED {time_boot_ms : 1258143, x : -15.336024284362793, y : -2.647998809814453, z : -0.18913480639457703, vx : 0.16421031951904297, vy : 0.38976216316223145, vz : -0.027140166610479355}
VIBRATION {time_usec : 1258143539, vibration_x : 0.49847859144210815, vibration_y : 0.6803300380706787, vibration_z : 0.8841941952705383, clipping_0 : 19, clipping_1 : 13, clipping_2 : 0}
POSITION_TARGET_GLOBAL_INT {time_boot_ms : 1258143, coordinate_frame : 0, type_mask : 65016, lat_int : 364301491, lon_int : 1273999856, alt : 100.0, vx : 0.0, vy : 0.0, vz : 0.0, afx : 0.0, afy : 0.0, afz : 0.0, yaw : 0.0, yaw_rate : 0.0}
BATTERY_STATUS {id : 0, battery_function : 0, type : 0, temperature : 32767, voltages : [6966, 65535, 65535, 65535, 65535, 65535, 65535, 65535, 65535, 65535], current_battery : 0, current_consumed : 0, energy_consumed : 0, battery_remaining : 100, time_remaining : 0, charge_state : 1, voltages_ext : [0, 0, 0, 0], mode : 0, fault_bitmask : 0}
ATTITUDE {time_boot_ms : 1258143, roll : -0.01927507109940052, pitch : 0.018339332193136215, yaw : 1.2800160646438599, rollspeed : -0.007225271314382553, pitchspeed : -0.008449728600680828, yawspeed : -0.09026796370744705}
VFR_HUD {airspeed : 0.37700000405311584, groundspeed : 0.42294156551361084, heading : 73, throttle : 9, alt : 48.87999725341797, climb : 0.027140166610479355}
AHRS2 {roll : -0.033368028700351715, pitch : -0.0023659244179725647, yaw : 1.3032469749450684, altitude : 49.61000061035156, lat : 364301278, lng : 1274000948}
ATTITUDE {time_boot_ms : 1258383, roll : -0.017964094877243042, pitch : 0.009033875539898872, yaw : 1.2608458995819092, rollspeed : -0.026966016739606857, pitchspeed : -0.08632240444421768, yawspeed : -0.04426548629999161}
VFR_HUD {airspeed : 0.3400000035762787, groundspeed : 0.4191955029964447, heading : 72, throttle : 9, alt : 48.93000030517578, climb : 0.025528185069561005}
AHRS2 {roll : -0.032551880925893784, pitch : -0.016305839642882347, yaw : 1.2869850397109985, altitude : 49.41999816894531, lat : 364301284, lng : 1274000955}
GLOBAL_POSITION_INT {time_boot_ms : 1258643, lat : 364301282, lon : 1274000961, alt : 48970, relative_alt : 178, vx : 20, vy : 37, vz : -3, hdg : 7144}
SYS_STATUS {onboard_control_sensors_present : 321969199, onboard_control_sensors_enabled : 52485167, onboard_control_sensors_health : 53533999, load : 135, voltage_battery : 7060, current_battery : 0, battery_remaining : 100, drop_rate_comm : 0, errors_comm : 0, errors_count1 : 0, errors_count2 : 0, errors_count3 : 0, errors_count4 : 0}
POWER_STATUS {Vcc : 4980, Vservo : 6053, flags : 1}
MEMINFO {brkval : 0, freemem : 65535, freemem32 : 220952}
NAV_CONTROLLER_OUTPUT {nav_roll : 0.0, nav_pitch : 0.0, nav_bearing : 244, target_bearing : 283, wp_dist : 10, alt_error : 0.0, aspd_error : 0.0, xtrack_error : -0.541541337966919}
MISSION_CURRENT {seq : 1}
SERVO_OUTPUT_RAW {time_usec : 1258643667, port : 0, servo1_raw : 1578, servo2_raw : 0, servo3_raw : 1564, servo4_raw : 0, servo5_raw : 0, servo6_raw : 0, servo7_raw : 0, servo8_raw : 0, servo9_raw : 0, servo10_raw : 0, servo11_raw : 0, servo12_raw : 0, servo13_raw : 0, servo14_raw : 0, servo15_raw : 0, servo16_raw : 0}
RC_CHANNELS {time_boot_ms : 1258643, chancount : 16, chan1_raw : 1483, chan2_raw : 1496, chan3_raw : 1609, chan4_raw : 1537, chan5_raw : 1100, chan6_raw : 1100, chan7_raw : 1100, chan8_raw : 1500, chan9_raw : 1900, chan10_raw : 1500, chan11_raw : 1500, chan12_raw : 1500, chan13_raw : 1500, chan14_raw : 1500, chan15_raw : 1500, chan16_raw : 1500, chan17_raw : 0, chan18_raw : 0, rssi : 255}
RAW_IMU {time_usec : 1258643726, xacc : -61, yacc : 45, zacc : -993, xgyro : -32, ygyro : -3, zgyro : -55, xmag : 39, ymag : -383, zmag : 432, id : 0, temperature : 3925}
SCALED_IMU2 {time_boot_ms : 1258643, xacc : -50, yacc : 52, zacc : -993, xgyro : -30, ygyro : -3, zgyro : -55, xmag : 234, ymag : -311, zmag : 368, temperature : 2900}
SCALED_PRESSURE {time_boot_ms : 1258643, press_abs : 1020.771484375, press_diff : 0.0, temperature : 3359, temperature_press_diff : 0}
GPS_RAW_INT {time_usec : 1258616000, fix_type : 4, lat : 364301290, lon : 1274000964, alt : 34020, eph : 64, epv : 85, vel : 40, cog : 5235, satellites_visible : 18, alt_ellipsoid : 54040, h_acc : 751, v_acc : 962, vel_acc : 243, hdg_acc : 0, yaw : 0}
SYSTEM_TIME {time_unix_usec : 1680492052607847, time_boot_ms : 1258644}
AHRS {omegaIx : 0.0020779778715223074, omegaIy : 6.671322626061738e-05, omegaIz : -0.00046212790766730905, accel_weight : 0.0, renorm_val : 0.0, error_rp : 0.025933120399713516, error_yaw : 0.037122681736946106}
HWSTATUS {Vcc : 4985, I2Cerr : 0}
MOUNT_STATUS {target_system : 0, target_component : 0, pointing_a : 0, pointing_b : 0, pointing_c : 0, mount_mode : 3}
EKF_STATUS_REPORT {flags : 831, velocity_variance : 0.017761224880814552, pos_horiz_variance : 0.023904455825686455, pos_vert_variance : 0.03303418681025505, compass_variance : 0.03638260439038277, terrain_alt_variance : 0.0, airspeed_variance : 0.0}
LOCAL_POSITION_NED {time_boot_ms : 1258665, x : -15.194368362426758, y : -2.4500770568847656, z : -0.2823715806007385, vx : 0.20613545179367065, vy : 0.373220831155777, vz : -0.03660554811358452}
VIBRATION {time_usec : 1258665534, vibration_x : 0.5174263119697571, vibration_y : 0.41536492109298706, vibration_z : 0.7181111574172974, clipping_0 : 19, clipping_1 : 13, clipping_2 : 0}
POSITION_TARGET_GLOBAL_INT {time_boot_ms : 1258665, coordinate_frame : 0, type_mask : 65016, lat_int : 364301491, lon_int : 1273999856, alt : 100.0, vx : 0.0, vy : 0.0, vz : 0.0, afx : 0.0, afy : 0.0, afz : 0.0, yaw : 0.0, yaw_rate : 0.0}
BATTERY_STATUS {id : 0, battery_function : 0, type : 0, temperature : 32767, voltages : [7060, 65535, 65535, 65535, 65535, 65535, 65535, 65535, 65535, 65535], current_battery : 0, current_consumed : 0, energy_consumed : 0, battery_remaining : 100, time_remaining : 0, charge_state : 1, voltages_ext : [0, 0, 0, 0], mode : 0, fault_bitmask : 0}
ATTITUDE {time_boot_ms : 1258665, roll : -0.02239755168557167, pitch : 0.00011132258805446327, yaw : 1.2460346221923828, rollspeed : -0.030215516686439514, pitchspeed : -0.0032550995238125324, yawspeed : -0.05044819414615631}
VFR_HUD {airspeed : 0.40300002694129944, groundspeed : 0.4263632297515869, heading : 71, throttle : 12, alt : 48.97999954223633, climb : 0.03660554811358452}
AHRS2 {roll : -0.03656124696135521, pitch : -0.024204129353165627, yaw : 1.2735198736190796, altitude : 49.369998931884766, lat : 364301293, lng : 1274000969}
ATTITUDE {time_boot_ms : 1258883, roll : -0.01664779894053936, pitch : 0.008591786026954651, yaw : 1.240721583366394, rollspeed : 0.04113154113292694, pitchspeed : 0.03877682238817215, yawspeed : -0.017188144847750664}
VFR_HUD {airspeed : 0.2770000100135803, groundspeed : 0.555813729763031, heading : 71, throttle : 24, alt : 49.02000045776367, climb : 0.050644949078559875}
AHRS2 {roll : -0.03090079128742218, pitch : -0.017522118985652924, yaw : 1.2722752094268799, altitude : 49.70000076293945, lat : 364301299, lng : 1274000974}
HEARTBEAT {type : 10, autopilot : 3, base_mode : 137, custom_mode : 10, system_status : 4, mavlink_version : 3}
RC_CHANNELS_SCALED {time_boot_ms : 1259103, port : 0, chan1_scaled : -3834, chan2_scaled : 0, chan3_scaled : 4528, chan4_scaled : 0, chan5_scaled : 0, chan6_scaled : 0, chan7_scaled : 0, chan8_scaled : 0, rssi : 255}
GLOBAL_POSITION_INT {time_boot_ms : 1259122, lat : 364301298, lon : 1274000988, alt : 49060, relative_alt : 263, vx : 50, vy : 86, vz : -2, hdg : 6906}
SYS_STATUS {onboard_control_sensors_present : 321969199, onboard_control_sensors_enabled : 52485167, onboard_control_sensors_health : 53533999, load : 139, voltage_battery : 7026, current_battery : 0, battery_remaining : 100, drop_rate_comm : 0, errors_comm : 0, errors_count1 : 0, errors_count2 : 0, errors_count3 : 0, errors_count4 : 0}
POWER_STATUS {Vcc : 4983, Vservo : 6101, flags : 1}
MEMINFO {brkval : 0, freemem : 65535, freemem32 : 220952}
NAV_CONTROLLER_OUTPUT {nav_roll : 0.0, nav_pitch : 0.0, nav_bearing : 262, target_bearing : 281, wp_dist : 10, alt_error : 0.0, aspd_error : 0.0, xtrack_error : -0.7803082466125488}
MISSION_CURRENT {seq : 1}
SERVO_OUTPUT_RAW {time_usec : 1259123281, port : 0, servo1_raw : 1650, servo2_raw : 0, servo3_raw : 1607, servo4_raw : 0, servo5_raw : 0, servo6_raw : 0, servo7_raw : 0, servo8_raw : 0, servo9_raw : 0, servo10_raw : 0, servo11_raw : 0, servo12_raw : 0, servo13_raw : 0, servo14_raw : 0, servo15_raw : 0, servo16_raw : 0}
RC_CHANNELS {time_boot_ms : 1259123, chancount : 16, chan1_raw : 1483, chan2_raw : 1496, chan3_raw : 1717, chan4_raw : 1537, chan5_raw : 1100, chan6_raw : 1100, chan7_raw : 1100, chan8_raw : 1500, chan9_raw : 1900, chan10_raw : 1500, chan11_raw : 1500, chan12_raw : 1500, chan13_raw : 1500, chan14_raw : 1500, chan15_raw : 1500, chan16_raw : 1500, chan17_raw : 0, chan18_raw : 0, rssi : 255}
RAW_IMU {time_usec : 1259123338, xacc : 241, yacc : -30, zacc : -960, xgyro : 33, ygyro : 154, zgyro : -254, xmag : -20, ymag : -347, zmag : 442, id : 0, temperature : 3926}
SCALED_IMU2 {time_boot_ms : 1259123, xacc : 253, yacc : -17, zacc : -955, xgyro : 34, ygyro : 157, zgyro : -253, xmag : 181, ymag : -250, zmag : 435, temperature : 2900}
SCALED_PRESSURE {time_boot_ms : 1259123, press_abs : 1020.7534790039062, press_diff : 0.0, temperature : 3359, temperature_press_diff : 0}
GPS_RAW_INT {time_usec : 1259016000, fix_type : 4, lat : 364301302, lon : 1274000978, alt : 34080, eph : 64, epv : 85, vel : 40, cog : 5422, satellites_visible : 18, alt_ellipsoid : 54100, h_acc : 750, v_acc : 959, vel_acc : 237, hdg_acc : 0, yaw : 0}
SYSTEM_TIME {time_unix_usec : 1680492053106861, time_boot_ms : 1259143}
AHRS {omegaIx : 0.002068787347525358, omegaIy : 9.482065797783434e-05, omegaIz : -0.0004119570949114859, accel_weight : 0.0, renorm_val : 0.0, error_rp : 0.029586659744381905, error_yaw : 0.12323994189500809}
HWSTATUS {Vcc : 4882, I2Cerr : 0}
MOUNT_STATUS {target_system : 0, target_component : 0, pointing_a : 0, pointing_b : 0, pointing_c : 0, mount_mode : 3}
EKF_STATUS_REPORT {flags : 831, velocity_variance : 0.04304986819624901, pos_horiz_variance : 0.024014992639422417, pos_vert_variance : 0.049908459186553955, compass_variance : 0.11639314889907837, terrain_alt_variance : 0.0, airspeed_variance : 0.0}
LOCAL_POSITION_NED {time_boot_ms : 1259143, x : -15.007525444030762, y : -2.1963319778442383, z : -0.36694422364234924, vx : 0.5314951539039612, vy : 0.8764491677284241, vz : -0.04226236417889595}
VIBRATION {time_usec : 1259143364, vibration_x : 0.9649753570556641, vibration_y : 1.305336594581604, vibration_z : 1.2703455686569214, clipping_0 : 19, clipping_1 : 13, clipping_2 : 0}
POSITION_TARGET_GLOBAL_INT {time_boot_ms : 1259143, coordinate_frame : 0, type_mask : 65016, lat_int : 364301491, lon_int : 1273999856, alt : 100.0, vx : 0.0, vy : 0.0, vz : 0.0, afx : 0.0, afy : 0.0, afz : 0.0, yaw : 0.0, yaw_rate : 0.0}
BATTERY_STATUS {id : 0, battery_function : 0, type : 0, temperature : 32767, voltages : [7026, 65535, 65535, 65535, 65535, 65535, 65535, 65535, 65535, 65535], current_battery : 0, current_consumed : 0, energy_consumed : 0, battery_remaining : 100, time_remaining : 0, charge_state : 1, voltages_ext : [0, 0, 0, 0], mode : 0, fault_bitmask : 0}
ATTITUDE {time_boot_ms : 1259143, roll : -0.01644146256148815, pitch : 0.034778133034706116, yaw : 1.196750283241272, rollspeed : 0.042026933282613754, pitchspeed : 0.14163443446159363, yawspeed : -0.290066659450531}
VFR_HUD {airspeed : 0.406000018119812, groundspeed : 1.0250122547149658, heading : 68, throttle : 32, alt : 49.05999755859375, climb : 0.04226236417889595}
AHRS2 {roll : -0.029135901480913162, pitch : 0.010225988924503326, yaw : 1.231919527053833, altitude : 49.57999801635742, lat : 364301306, lng : 1274000985}
ATTITUDE {time_boot_ms : 1259383, roll : -0.01611948385834694, pitch : 0.05116346478462219, yaw : 1.0916163921356201, rollspeed : -0.14021922647953033, pitchspeed : 0.12520402669906616, yawspeed : -0.4157697856426239}
VFR_HUD {airspeed : 0.9540000557899475, groundspeed : 1.5237387418746948, heading : 62, throttle : 37, alt : 49.11000061035156, climb : 0.08252173662185669}
AHRS2 {roll : -0.0290584247559309, pitch : 0.024073151871562004, yaw : 1.1315743923187256, altitude : 49.40999984741211, lat : 364301327, lng : 1274001006}
GLOBAL_POSITION_INT {time_boot_ms : 1259622, lat : 364301344, lon : 1274001052, alt : 49140, relative_alt : 348, vx : 121, vy : 153, vz : 0, hdg : 5731}
SYS_STATUS {onboard_control_sensors_present : 321969199, onboard_control_sensors_enabled : 52485167, onboard_control_sensors_health : 53533999, load : 137, voltage_battery : 6924, current_battery : 0, battery_remaining : 100, drop_rate_comm : 0, errors_comm : 0, errors_count1 : 0, errors_count2 : 0, errors_count3 : 0, errors_count4 : 0}
POWER_STATUS {Vcc : 5006, Vservo : 6024, flags : 1}
MEMINFO {brkval : 0, freemem : 65535, freemem32 : 220952}
NAV_CONTROLLER_OUTPUT {nav_roll : 0.0, nav_pitch : 0.0, nav_bearing : 263, target_bearing : 278, wp_dist : 10, alt_error : 0.0, aspd_error : 0.0, xtrack_error : -1.4325491189956665}
MISSION_CURRENT {seq : 1}
SERVO_OUTPUT_RAW {time_usec : 1259623281, port : 0, servo1_raw : 1599, servo2_raw : 0, servo3_raw : 1602, servo4_raw : 0, servo5_raw : 0, servo6_raw : 0, servo7_raw : 0, servo8_raw : 0, servo9_raw : 0, servo10_raw : 0, servo11_raw : 0, servo12_raw : 0, servo13_raw : 0, servo14_raw : 0, servo15_raw : 0, servo16_raw : 0}
RC_CHANNELS {time_boot_ms : 1259623, chancount : 16, chan1_raw : 1482, chan2_raw : 1496, chan3_raw : 1686, chan4_raw : 1536, chan5_raw : 1100, chan6_raw : 1100, chan7_raw : 1100, chan8_raw : 1500, chan9_raw : 1900, chan10_raw : 1500, chan11_raw : 1500, chan12_raw : 1500, chan13_raw : 1500, chan14_raw : 1500, chan15_raw : 1500, chan16_raw : 1500, chan17_raw : 0, chan18_raw : 0, rssi : 255}
RAW_IMU {time_usec : 1259623361, xacc : 150, yacc : 121, zacc : -824, xgyro : 13, ygyro : -12, zgyro : -405, xmag : -16, ymag : -335, zmag : 424, id : 0, temperature : 3925}
SCALED_IMU2 {time_boot_ms : 1259623, xacc : 166, yacc : 134, zacc : -798, xgyro : 12, ygyro : -10, zgyro : -404, xmag : 133, ymag : -235, zmag : 483, temperature : 2900}
SCALED_PRESSURE {time_boot_ms : 1259623, press_abs : 1020.7742919921875, press_diff : 0.0, temperature : 3359, temperature_press_diff : 0}
GPS_RAW_INT {time_usec : 1259416000, fix_type : 4, lat : 364301329, lon : 1274001007, alt : 34100, eph : 64, epv : 85, vel : 140, cog : 4267, satellites_visible : 18, alt_ellipsoid : 54121, h_acc : 749, v_acc : 957, vel_acc : 250, hdg_acc : 0, yaw : 0}
SYSTEM_TIME {time_unix_usec : 1680492053587522, time_boot_ms : 1259623}
AHRS {omegaIx : 0.0019963777158409357, omegaIy : 0.00011003050167346373, omegaIz : -0.00030627025989815593, accel_weight : 0.0, renorm_val : 0.0, error_rp : 0.05690399929881096, error_yaw : 0.2970673739910126}
HWSTATUS {Vcc : 4998, I2Cerr : 0}
MOUNT_STATUS {target_system : 0, target_component : 0, pointing_a : 0, pointing_b : 0, pointing_c : 0, mount_mode : 3}
EKF_STATUS_REPORT {flags : 831, velocity_variance : 0.0773189440369606, pos_horiz_variance : 0.03191719576716423, pos_vert_variance : 0.016509119421243668, compass_variance : 0.25657740235328674, terrain_alt_variance : 0.0, airspeed_variance : 0.0}
LOCAL_POSITION_NED {time_boot_ms : 1259643, x : -14.484719276428223, y : -1.6102299690246582, z : -0.44963952898979187, vx : 1.2454814910888672, vy : 1.5104814767837524, vz : -0.012300953269004822}
VIBRATION {time_usec : 1259643600, vibration_x : 1.1904560327529907, vibration_y : 2.355590343475342, vibration_z : 3.3660991191864014, clipping_0 : 19, clipping_1 : 13, clipping_2 : 0}
POSITION_TARGET_GLOBAL_INT {time_boot_ms : 1259643, coordinate_frame : 0, type_mask : 65016, lat_int : 364301491, lon_int : 1273999856, alt : 100.0, vx : 0.0, vy : 0.0, vz : 0.0, afx : 0.0, afy : 0.0, afz : 0.0, yaw : 0.0, yaw_rate : 0.0}
BATTERY_STATUS {id : 0, battery_function : 0, type : 0, temperature : 32767, voltages : [6924, 65535, 65535, 65535, 65535, 65535, 65535, 65535, 65535, 65535], current_battery : 0, current_consumed : 0, energy_consumed : 0, battery_remaining : 100, time_remaining : 0, charge_state : 1, voltages_ext : [0, 0, 0, 0], mode : 0, fault_bitmask : 0}
ATTITUDE {time_boot_ms : 1259643, roll : -0.01431676559150219, pitch : 0.03083966299891472, yaw : 0.9916820526123047, rollspeed : 0.022662809118628502, pitchspeed : -0.060027770698070526, yawspeed : -0.418069988489151}
VFR_HUD {airspeed : 1.7540000677108765, groundspeed : 1.957748293876648, heading : 56, throttle : 20, alt : 49.13999938964844, climb : 0.012300953269004822}
AHRS2 {roll : -0.028479617089033127, pitch : 0.0018855001544579864, yaw : 1.039169192314148, altitude : 49.38999938964844, lat : 364301357, lng : 1274001038}
ATTITUDE {time_boot_ms : 1259883, roll : -0.017834404483437538, pitch : 0.03890414163470268, yaw : 0.880912184715271, rollspeed : -0.01738669164478779, pitchspeed : 0.10695769637823105, yawspeed : -0.4723060429096222}
VFR_HUD {airspeed : 1.8630000352859497, groundspeed : 1.971458911895752, heading : 50, throttle : 20, alt : 49.16999816894531, climb : 0.0940340980887413}
AHRS2 {roll : -0.02977045066654682, pitch : 0.010656259022653103, yaw : 0.9372414946556091, altitude : 49.40999984741211, lat : 364301398, lng : 1274001073}
HEARTBEAT {type : 10, autopilot : 3, base_mode : 137, custom_mode : 10, system_status : 4, mavlink_version : 3}
RC_CHANNELS_SCALED {time_boot_ms : 1260102, port : 0, chan1_scaled : -2833, chan2_scaled : 0, chan3_scaled : 3526, chan4_scaled : 0, chan5_scaled : 0, chan6_scaled : 0, chan7_scaled : 0, chan8_scaled : 0, rssi : 255}
GLOBAL_POSITION_INT {time_boot_ms : 1260122, lat : 364301419, lon : 1274001119, alt : 49190, relative_alt : 393, vx : 157, vy : 119, vz : -8, hdg : 4625}
SYS_STATUS {onboard_control_sensors_present : 321969199, onboard_control_sensors_enabled : 52485167, onboard_control_sensors_health : 53533999, load : 138, voltage_battery : 6911, current_battery : 0, battery_remaining : 100, drop_rate_comm : 0, errors_comm : 0, errors_count1 : 0, errors_count2 : 0, errors_count3 : 0, errors_count4 : 0}
POWER_STATUS {Vcc : 5004, Vservo : 6072, flags : 1}
MEMINFO {brkval : 0, freemem : 65535, freemem32 : 220952}
NAV_CONTROLLER_OUTPUT {nav_roll : 0.0, nav_pitch : 0.0, nav_bearing : 246, target_bearing : 274, wp_dist : 11, alt_error : 0.0, aspd_error : 0.0, xtrack_error : -2.40220046043396}
MISSION_CURRENT {seq : 1}
SERVO_OUTPUT_RAW {time_usec : 1260123194, port : 0, servo1_raw : 1612, servo2_raw : 0, servo3_raw : 1582, servo4_raw : 0, servo5_raw : 0, servo6_raw : 0, servo7_raw : 0, servo8_raw : 0, servo9_raw : 0, servo10_raw : 0, servo11_raw : 0, servo12_raw : 0, servo13_raw : 0, servo14_raw : 0, servo15_raw : 0, servo16_raw : 0}
RC_CHANNELS {time_boot_ms : 1260123, chancount : 16, chan1_raw : 1483, chan2_raw : 1495, chan3_raw : 1716, chan4_raw : 1537, chan5_raw : 1100, chan6_raw : 1100, chan7_raw : 1100, chan8_raw : 1500, chan9_raw : 1900, chan10_raw : 1500, chan11_raw : 1500, chan12_raw : 1500, chan13_raw : 1500, chan14_raw : 1500, chan15_raw : 1500, chan16_raw : 1500, chan17_raw : 0, chan18_raw : 0, rssi : 255}
RAW_IMU {time_usec : 1260123292, xacc : -41, yacc : -163, zacc : -1158, xgyro : 105, ygyro : 69, zgyro : -425, xmag : 20, ymag : -333, zmag : 313, id : 0, temperature : 3926}
SCALED_IMU2 {time_boot_ms : 1260123, xacc : -35, yacc : -148, zacc : -1171, xgyro : 102, ygyro : 70, zgyro : -424, xmag : 167, ymag : -244, zmag : 265, temperature : 2900}
SCALED_PRESSURE {time_boot_ms : 1260123, press_abs : 1020.7924194335938, press_diff : 0.0, temperature : 3360, temperature_press_diff : 0}
GPS_RAW_INT {time_usec : 1260016000, fix_type : 4, lat : 364301409, lon : 1274001080, alt : 34120, eph : 64, epv : 85, vel : 183, cog : 3223, satellites_visible : 18, alt_ellipsoid : 54141, h_acc : 752, v_acc : 958, vel_acc : 173, hdg_acc : 0, yaw : 0}
SYSTEM_TIME {time_unix_usec : 1680492054087437, time_boot_ms : 1260123}
AHRS {omegaIx : 0.0018941283924505115, omegaIy : 0.00019692325440701097, omegaIz : -0.00022609120060224086, accel_weight : 0.0, renorm_val : 0.0, error_rp : 0.059957776218652725, error_yaw : 0.4162016212940216}
HWSTATUS {Vcc : 5004, I2Cerr : 0}
MOUNT_STATUS {target_system : 0, target_component : 0, pointing_a : 0, pointing_b : 0, pointing_c : 0, mount_mode : 3}
EKF_STATUS_REPORT {flags : 831, velocity_variance : 0.08701954036951065, pos_horiz_variance : 0.03697112575173378, pos_vert_variance : 0.002199738286435604, compass_variance : 0.37495049834251404, terrain_alt_variance : 0.0, airspeed_variance : 0.0}
LOCAL_POSITION_NED {time_boot_ms : 1260143, x : -13.644085884094238, y : -1.022641658782959, z : -0.4946824610233307, vx : 1.5860503911972046, vy : 1.1999199390411377, vz : -0.03721931204199791}
VIBRATION {time_usec : 1260143554, vibration_x : 2.0898940563201904, vibration_y : 2.8532724380493164, vibration_z : 3.2980892658233643, clipping_0 : 19, clipping_1 : 13, clipping_2 : 0}
POSITION_TARGET_GLOBAL_INT {time_boot_ms : 1260143, coordinate_frame : 0, type_mask : 65016, lat_int : 364301491, lon_int : 1273999856, alt : 100.0, vx : 0.0, vy : 0.0, vz : 0.0, afx : 0.0, afy : 0.0, afz : 0.0, yaw : 0.0, yaw_rate : 0.0}
BATTERY_STATUS {id : 0, battery_function : 0, type : 0, temperature : 32767, voltages : [6911, 65535, 65535, 65535, 65535, 65535, 65535, 65535, 65535, 65535], current_battery : 0, current_consumed : 0, energy_consumed : 0, battery_remaining : 100, time_remaining : 0, charge_state : 1, voltages_ext : [0, 0, 0, 0], mode : 0, fault_bitmask : 0}
ATTITUDE {time_boot_ms : 1260143, roll : 0.001739049912430346, pitch : 0.012756005860865116, yaw : 0.7982707619667053, rollspeed : 0.17168250679969788, pitchspeed : 0.05673566460609436, yawspeed : -0.4444452226161957}
VFR_HUD {airspeed : 1.8300000429153442, groundspeed : 1.988809585571289, heading : 45, throttle : 18, alt : 49.189998626708984, climb : 0.03721931204199791}
AHRS2 {roll : -0.003441599663347006, pitch : -0.0016201452817767859, yaw : 0.8561394810676575, altitude : 49.25, lat : 364301437, lng : 1274001100}
ATTITUDE {time_boot_ms : 1260383, roll : -0.013051008805632591, pitch : 0.010008993558585644, yaw : 0.6653319597244263, rollspeed : -0.03121447190642357, pitchspeed : -0.04415912553668022, yawspeed : -0.47517067193984985}
VFR_HUD {airspeed : 1.7990001440048218, groundspeed : 2.002089500427246, heading : 38, throttle : 23, alt : 49.209999084472656, climb : 0.061605315655469894}
AHRS2 {roll : -0.017270736396312714, pitch : -0.013038720935583115, yaw : 0.7397536635398865, altitude : 49.31999969482422, lat : 364301475, lng : 1274001123}
GLOBAL_POSITION_INT {time_boot_ms : 1260643, lat : 364301510, lon : 1274001159, alt : 49230, relative_alt : 432, vx : 206, vy : 73, vz : -11, hdg : 3000}
SYS_STATUS {onboard_control_sensors_present : 321969199, onboard_control_sensors_enabled : 52485167, onboard_control_sensors_health : 53533999, load : 136, voltage_battery : 7103, current_battery : 0, battery_remaining : 100, drop_rate_comm : 0, errors_comm : 0, errors_count1 : 0, errors_count2 : 0, errors_count3 : 0, errors_count4 : 0}
POWER_STATUS {Vcc : 4967, Vservo : 6077, flags : 1}
MEMINFO {brkval : 0, freemem : 65535, freemem32 : 220952}
NAV_CONTROLLER_OUTPUT {nav_roll : 0.0, nav_pitch : 0.0, nav_bearing : 241, target_bearing : 268, wp_dist : 11, alt_error : 0.0, aspd_error : 0.0, xtrack_error : -3.475017786026001}
MISSION_CURRENT {seq : 1}
SERVO_OUTPUT_RAW {time_usec : 1260643679, port : 0, servo1_raw : 1609, servo2_raw : 0, servo3_raw : 1614, servo4_raw : 0, servo5_raw : 0, servo6_raw : 0, servo7_raw : 0, servo8_raw : 0, servo9_raw : 0, servo10_raw : 0, servo11_raw : 0, servo12_raw : 0, servo13_raw : 0, servo14_raw : 0, servo15_raw : 0, servo16_raw : 0}
RC_CHANNELS {time_boot_ms : 1260643, chancount : 16, chan1_raw : 1497, chan2_raw : 1485, chan3_raw : 1790, chan4_raw : 1536, chan5_raw : 1100, chan6_raw : 1100, chan7_raw : 1100, chan8_raw : 1500, chan9_raw : 1900, chan10_raw : 1500, chan11_raw : 1500, chan12_raw : 1500, chan13_raw : 1500, chan14_raw : 1500, chan15_raw : 1500, chan16_raw : 1500, chan17_raw : 0, chan18_raw : 0, rssi : 255}
RAW_IMU {time_usec : 1260643778, xacc : 57, yacc : -110, zacc : -1142, xgyro : 14, ygyro : -212, zgyro : -732, xmag : 51, ymag : -279, zmag : 333, id : 0, temperature : 3925}
SCALED_IMU2 {time_boot_ms : 1260643, xacc : 65, yacc : -91, zacc : -1146, xgyro : 13, ygyro : -208, zgyro : -730, xmag : 230, ymag : -164, zmag : 339, temperature : 2900}
SCALED_PRESSURE {time_boot_ms : 1260643, press_abs : 1020.7846069335938, press_diff : 0.0, temperature : 3360, temperature_press_diff : 0}
GPS_RAW_INT {time_usec : 1260616000, fix_type : 4, lat : 364301506, lon : 1274001133, alt : 34180, eph : 64, epv : 85, vel : 188, cog : 1742, satellites_visible : 18, alt_ellipsoid : 54200, h_acc : 742, v_acc : 943, vel_acc : 151, hdg_acc : 0, yaw : 0}
SYSTEM_TIME {time_unix_usec : 1680492054629010, time_boot_ms : 1260665}
AHRS {omegaIx : 0.0018335445784032345, omegaIy : 0.00031934402068145573, omegaIz : -0.00011120135604869574, accel_weight : 0.0, renorm_val : 0.0, error_rp : 0.05769559368491173, error_yaw : 0.4690243601799011}
HWSTATUS {Vcc : 5008, I2Cerr : 0}
MOUNT_STATUS {target_system : 0, target_component : 0, pointing_a : 0, pointing_b : 0, pointing_c : 0, mount_mode : 3}
EKF_STATUS_REPORT {flags : 831, velocity_variance : 0.0911397710442543, pos_horiz_variance : 0.04502151906490326, pos_vert_variance : 0.00045932523789815605, compass_variance : 0.3670666813850403, terrain_alt_variance : 0.0, airspeed_variance : 0.0}
LOCAL_POSITION_NED {time_boot_ms : 1260665, x : -12.618547439575195, y : -0.6791231632232666, z : -0.5344820022583008, vx : 2.1053895950317383, vy : 0.6919193863868713, vz : -0.11756695061922073}
VIBRATION {time_usec : 1260665600, vibration_x : 1.1325483322143555, vibration_y : 2.340752363204956, vibration_z : 2.1856439113616943, clipping_0 : 19, clipping_1 : 13, clipping_2 : 0}
POSITION_TARGET_GLOBAL_INT {time_boot_ms : 1260665, coordinate_frame : 0, type_mask : 65016, lat_int : 364301491, lon_int : 1273999856, alt : 100.0, vx : 0.0, vy : 0.0, vz : 0.0, afx : 0.0, afy : 0.0, afz : 0.0, yaw : 0.0, yaw_rate : 0.0}
BATTERY_STATUS {id : 0, battery_function : 0, type : 0, temperature : 32767, voltages : [7103, 65535, 65535, 65535, 65535, 65535, 65535, 65535, 65535, 65535], current_battery : 0, current_consumed : 0, energy_consumed : 0, battery_remaining : 100, time_remaining : 0, charge_state : 1, voltages_ext : [0, 0, 0, 0], mode : 0, fault_bitmask : 0}
ATTITUDE {time_boot_ms : 1260665, roll : 0.0070853279903531075, pitch : 0.034818895161151886, yaw : 0.5097527503967285, rollspeed : 0.07902377098798752, pitchspeed : -0.19143737852573395, yawspeed : -0.7418189644813538}
VFR_HUD {airspeed : 1.8840000629425049, groundspeed : 2.255185127258301, heading : 28, throttle : 37, alt : 49.22999954223633, climb : 0.06687464565038681}
AHRS2 {roll : 0.012331021018326283, pitch : 0.01946449838578701, yaw : 0.589000940322876, altitude : 49.39999771118164, lat : 364301529, lng : 1274001139}
ATTITUDE {time_boot_ms : 1260883, roll : 0.0034030487295240164, pitch : 0.036360956728458405, yaw : 0.3869073987007141, rollspeed : 0.06940532475709915, pitchspeed : -0.007002946455031633, yawspeed : -0.633147656917572}
VFR_HUD {airspeed : 2.0820000171661377, groundspeed : 2.506096363067627, heading : 22, throttle : 25, alt : 49.23999786376953, climb : 0.06703969091176987}
AHRS2 {roll : 0.006398424506187439, pitch : 0.0150792570784688, yaw : 0.4811283051967621, altitude : 49.34000015258789, lat : 364301569, lng : 1274001143}
HEARTBEAT {type : 10, autopilot : 3, base_mode : 137, custom_mode : 10, system_status : 4, mavlink_version : 3}
RC_CHANNELS_SCALED {time_boot_ms : 1261103, port : 0, chan1_scaled : -2723, chan2_scaled : 0, chan3_scaled : 2837, chan4_scaled : 0, chan5_scaled : 0, chan6_scaled : 0, chan7_scaled : 0, chan8_scaled : 0, rssi : 255}
GLOBAL_POSITION_INT {time_boot_ms : 1261122, lat : 364301618, lon : 1274001168, alt : 49260, relative_alt : 463, vx : 254, vy : 19, vz : -8, hdg : 1627}
SYS_STATUS {onboard_control_sensors_present : 321969199, onboard_control_sensors_enabled : 52485167, onboard_control_sensors_health : 53533999, load : 140, voltage_battery : 7023, current_battery : 0, battery_remaining : 100, drop_rate_comm : 0, errors_comm : 0, errors_count1 : 0, errors_count2 : 0, errors_count3 : 0, errors_count4 : 0}
POWER_STATUS {Vcc : 5006, Vservo : 6075, flags : 1}
MEMINFO {brkval : 0, freemem : 65535, freemem32 : 220952}
NAV_CONTROLLER_OUTPUT {nav_roll : 0.0, nav_pitch : 0.0, nav_bearing : 241, target_bearing : 263, wp_dist : 11, alt_error : 0.0, aspd_error : 0.0, xtrack_error : -4.651642322540283}
MISSION_CURRENT {seq : 1}
SERVO_OUTPUT_RAW {time_usec : 1261123263, port : 0, servo1_raw : 1608, servo2_raw : 0, servo3_raw : 1570, servo4_raw : 0, servo5_raw : 0, servo6_raw : 0, servo7_raw : 0, servo8_raw : 0, servo9_raw : 0, servo10_raw : 0, servo11_raw : 0, servo12_raw : 0, servo13_raw : 0, servo14_raw : 0, servo15_raw : 0, servo16_raw : 0}
RC_CHANNELS {time_boot_ms : 1261123, chancount : 16, chan1_raw : 1495, chan2_raw : 1494, chan3_raw : 1511, chan4_raw : 1537, chan5_raw : 1100, chan6_raw : 1100, chan7_raw : 1100, chan8_raw : 1500, chan9_raw : 1900, chan10_raw : 1500, chan11_raw : 1500, chan12_raw : 1500, chan13_raw : 1500, chan14_raw : 1500, chan15_raw : 1500, chan16_raw : 1500, chan17_raw : 0, chan18_raw : 0, rssi : 255}
RAW_IMU {time_usec : 1261123323, xacc : -118, yacc : -169, zacc : -1069, xgyro : 22, ygyro : -118, zgyro : -544, xmag : 103, ymag : -221, zmag : 288, id : 0, temperature : 3926}
SCALED_IMU2 {time_boot_ms : 1261123, xacc : -106, yacc : -153, zacc : -1077, xgyro : 22, ygyro : -120, zgyro : -541, xmag : 297, ymag : -97, zmag : 264, temperature : 2900}
SCALED_PRESSURE {time_boot_ms : 1261123, press_abs : 1020.7862548828125, press_diff : 0.0, temperature : 3360, temperature_press_diff : 0}
GPS_RAW_INT {time_usec : 1261016000, fix_type : 4, lat : 364301583, lon : 1274001146, alt : 34310, eph : 64, epv : 85, vel : 225, cog : 672, satellites_visible : 18, alt_ellipsoid : 54330, h_acc : 735, v_acc : 935, vel_acc : 262, hdg_acc : 0, yaw : 0}
SYSTEM_TIME {time_unix_usec : 1680492055106860, time_boot_ms : 1261143}
AHRS {omegaIx : 0.0018167869420722127, omegaIy : 0.00042482896242290735, omegaIz : 4.76100512969424e-06, accel_weight : 0.0, renorm_val : 0.0, error_rp : 0.06187885254621506, error_yaw : 0.5414940118789673}
HWSTATUS {Vcc : 5008, I2Cerr : 0}
MOUNT_STATUS {target_system : 0, target_component : 0, pointing_a : 0, pointing_b : 0, pointing_c : 0, mount_mode : 3}
EKF_STATUS_REPORT {flags : 831, velocity_variance : 0.10898954421281815, pos_horiz_variance : 0.03879459574818611, pos_vert_variance : 0.003952454775571823, compass_variance : 0.4522877633571625, terrain_alt_variance : 0.0, airspeed_variance : 0.0}
LOCAL_POSITION_NED {time_boot_ms : 1261143, x : -11.408025741577148, y : -0.6076619029045105, z : -0.5646533966064453, vx : 2.564471483230591, vy : 0.1619148999452591, vz : -0.026382310315966606}
VIBRATION {time_usec : 1261143339, vibration_x : 1.3701177835464478, vibration_y : 2.3966479301452637, vibration_z : 2.8318090438842773, clipping_0 : 19, clipping_1 : 13, clipping_2 : 0}
POSITION_TARGET_GLOBAL_INT {time_boot_ms : 1261143, coordinate_frame : 0, type_mask : 65016, lat_int : 364301491, lon_int : 1273999856, alt : 100.0, vx : 0.0, vy : 0.0, vz : 0.0, afx : 0.0, afy : 0.0, afz : 0.0, yaw : 0.0, yaw_rate : 0.0}
BATTERY_STATUS {id : 0, battery_function : 0, type : 0, temperature : 32767, voltages : [7023, 65535, 65535, 65535, 65535, 65535, 65535, 65535, 65535, 65535], current_battery : 0, current_consumed : 0, energy_consumed : 0, battery_remaining : 100, time_remaining : 0, charge_state : 1, voltages_ext : [0, 0, 0, 0], mode : 0, fault_bitmask : 0}
ATTITUDE {time_boot_ms : 1261143, roll : 0.005029245279729366, pitch : 0.01067796628922224, yaw : 0.2698400914669037, rollspeed : 0.08020346611738205, pitchspeed : -0.08331206440925598, yawspeed : -0.5864754319190979}
VFR_HUD {airspeed : 2.255000114440918, groundspeed : 2.569577932357788, heading : 15, throttle : 7, alt : 49.2599983215332, climb : 0.026382310315966606}
AHRS2 {roll : 0.009732887148857117, pitch : -0.007475168444216251, yaw : 0.3833984136581421, altitude : 49.28999710083008, lat : 364301623, lng : 1274001147}
ATTITUDE {time_boot_ms : 1261383, roll : -0.008638642728328705, pitch : -0.006285847630351782, yaw : 0.12322874367237091, rollspeed : -0.09676259011030197, pitchspeed : 0.016528964042663574, yawspeed : -0.5987454652786255}
VFR_HUD {airspeed : 2.321000099182129, groundspeed : 2.426503896713257, heading : 7, throttle : 5, alt : 49.27000045776367, climb : 0.029904058203101158}
AHRS2 {roll : -0.0015624895459041, pitch : -0.021596267819404602, yaw : 0.2513045072555542, altitude : 49.119998931884766, lat : 364301676, lng : 1274001139}
GLOBAL_POSITION_INT {time_boot_ms : 1261622, lat : 364301724, lon : 1274001137, alt : 49280, relative_alt : 483, vx : 211, vy : -66, vz : -6, hdg : 35944}
SYS_STATUS {onboard_control_sensors_present : 321969199, onboard_control_sensors_enabled : 52485167, onboard_control_sensors_health : 53533999, load : 136, voltage_battery : 7138, current_battery : 0, battery_remaining : 100, drop_rate_comm : 0, errors_comm : 0, errors_count1 : 0, errors_count2 : 0, errors_count3 : 0, errors_count4 : 0}
POWER_STATUS {Vcc : 5006, Vservo : 6046, flags : 1}
MEMINFO {brkval : 0, freemem : 65535, freemem32 : 220952}
NAV_CONTROLLER_OUTPUT {nav_roll : 0.0, nav_pitch : 0.0, nav_bearing : 241, target_bearing : 257, wp_dist : 11, alt_error : 0.0, aspd_error : 0.0, xtrack_error : -5.706450939178467}
MISSION_CURRENT {seq : 1}
SERVO_OUTPUT_RAW {time_usec : 1261623271, port : 0, servo1_raw : 1633, servo2_raw : 0, servo3_raw : 1378, servo4_raw : 0, servo5_raw : 0, servo6_raw : 0, servo7_raw : 0, servo8_raw : 0, servo9_raw : 0, servo10_raw : 0, servo11_raw : 0, servo12_raw : 0, servo13_raw : 0, servo14_raw : 0, servo15_raw : 0, servo16_raw : 0}
RC_CHANNELS {time_boot_ms : 1261623, chancount : 16, chan1_raw : 1469, chan2_raw : 1457, chan3_raw : 1581, chan4_raw : 1549, chan5_raw : 1100, chan6_raw : 1100, chan7_raw : 1100, chan8_raw : 1500, chan9_raw : 1900, chan10_raw : 1500, chan11_raw : 1500, chan12_raw : 1500, chan13_raw : 1500, chan14_raw : 1500, chan15_raw : 1500, chan16_raw : 1500, chan17_raw : 0, chan18_raw : 0, rssi : 255}
RAW_IMU {time_usec : 1261623328, xacc : -145, yacc : -156, zacc : -1035, xgyro : 125, ygyro : 29, zgyro : -676, xmag : 102, ymag : -139, zmag : 275, id : 0, temperature : 3926}
SCALED_IMU2 {time_boot_ms : 1261623, xacc : -140, yacc : -146, zacc : -1035, xgyro : 124, ygyro : 34, zgyro : -677, xmag : 330, ymag : 12, zmag : 237, temperature : 2900}
SCALED_PRESSURE {time_boot_ms : 1261623, press_abs : 1020.8218383789062, press_diff : 0.0, temperature : 3361, temperature_press_diff : 0}
GPS_RAW_INT {time_usec : 1261416000, fix_type : 4, lat : 364301666, lon : 1274001138, alt : 34370, eph : 64, epv : 85, vel : 208, cog : 35588, satellites_visible : 18, alt_ellipsoid : 54391, h_acc : 737, v_acc : 941, vel_acc : 319, hdg_acc : 0, yaw : 0}
SYSTEM_TIME {time_unix_usec : 1680492055587495, time_boot_ms : 1261623}
AHRS {omegaIx : 0.0018351059406995773, omegaIy : 0.0005255622672848403, omegaIz : 0.00011385588732082397, accel_weight : 0.0, renorm_val : 0.0, error_rp : 0.07982361316680908, error_yaw : 0.5996435284614563}
HWSTATUS {Vcc : 5003, I2Cerr : 0}
MOUNT_STATUS {target_system : 0, target_component : 0, pointing_a : 0, pointing_b : 0, pointing_c : 0, mount_mode : 3}
EKF_STATUS_REPORT {flags : 831, velocity_variance : 0.117704838514328, pos_horiz_variance : 0.03250367194414139, pos_vert_variance : 0.013230475597083569, compass_variance : 0.46538475155830383, terrain_alt_variance : 0.0, airspeed_variance : 0.0}
LOCAL_POSITION_NED {time_boot_ms : 1261643, x : -10.243871688842773, y : -0.9133898615837097, z : -0.5836999416351318, vx : 2.09926700592041, vy : -0.7573081254959106, vz : -0.008744334802031517}
VIBRATION {time_usec : 1261643652, vibration_x : 1.1191978454589844, vibration_y : 2.0938587188720703, vibration_z : 1.914155125617981, clipping_0 : 19, clipping_1 : 13, clipping_2 : 0}
POSITION_TARGET_GLOBAL_INT {time_boot_ms : 1261643, coordinate_frame : 0, type_mask : 65016, lat_int : 364301491, lon_int : 1273999856, alt : 100.0, vx : 0.0, vy : 0.0, vz : 0.0, afx : 0.0, afy : 0.0, afz : 0.0, yaw : 0.0, yaw_rate : 0.0}
BATTERY_STATUS {id : 0, battery_function : 0, type : 0, temperature : 32767, voltages : [7138, 65535, 65535, 65535, 65535, 65535, 65535, 65535, 65535, 65535], current_battery : 0, current_consumed : 0, energy_consumed : 0, battery_remaining : 100, time_remaining : 0, charge_state : 1, voltages_ext : [0, 0, 0, 0], mode : 0, fault_bitmask : 0}
ATTITUDE {time_boot_ms : 1261643, roll : -0.006826082710176706, pitch : 0.007293342612683773, yaw : -0.021111978217959404, rollspeed : 0.13517269492149353, pitchspeed : 0.02587815746665001, yawspeed : -0.6503064036369324}
VFR_HUD {airspeed : 1.874000072479248, groundspeed : 2.231689453125, heading : 358, throttle : 17, alt : 49.279998779296875, climb : 0.008744334802031517}
AHRS2 {roll : 0.004171278793364763, pitch : -0.002145522739738226, yaw : 0.11886081844568253, altitude : 48.97999954223633, lat : 364301720, lng : 1274001123}
ATTITUDE {time_boot_ms : 1261883, roll : -0.00323419994674623, pitch : 0.01232152059674263, yaw : -0.17059579491615295, rollspeed : 0.026670163497328758, pitchspeed : 0.06754828989505768, yawspeed : -0.5873287320137024}
VFR_HUD {airspeed : 1.5070000886917114, groundspeed : 1.974968671798706, heading : 350, throttle : 2, alt : 49.279998779296875, climb : 0.11757957190275192}
AHRS2 {roll : 0.011923851445317268, pitch : 0.006868073716759682, yaw : -0.01211341843008995, altitude : 49.2599983215332, lat : 364301747, lng : 1274001103}
HEARTBEAT {type : 10, autopilot : 3, base_mode : 137, custom_mode : 10, system_status : 4, mavlink_version : 3}
RC_CHANNELS_SCALED {time_boot_ms : 1262103, port : 0, chan1_scaled : -4447, chan2_scaled : 0, chan3_scaled : 3161, chan4_scaled : 0, chan5_scaled : 0, chan6_scaled : 0, chan7_scaled : 0, chan8_scaled : 0, rssi : 255}
GLOBAL_POSITION_INT {time_boot_ms : 1262123, lat : 364301791, lon : 1274001073, alt : 49280, relative_alt : 488, vx : 139, vy : -123, vz : -7, hdg : 34098}
SYS_STATUS {onboard_control_sensors_present : 321969199, onboard_control_sensors_enabled : 52485167, onboard_control_sensors_health : 53533999, load : 142, voltage_battery : 7141, current_battery : 0, battery_remaining : 100, drop_rate_comm : 0, errors_comm : 0, errors_count1 : 0, errors_count2 : 0, errors_count3 : 0, errors_count4 : 0}
POWER_STATUS {Vcc : 5003, Vservo : 6072, flags : 1}
MEMINFO {brkval : 0, freemem : 65535, freemem32 : 220952}
NAV_CONTROLLER_OUTPUT {nav_roll : 0.0, nav_pitch : 0.0, nav_bearing : 241, target_bearing : 253, wp_dist : 11, alt_error : 0.0, aspd_error : 0.0, xtrack_error : -6.261662006378174}
MISSION_CURRENT {seq : 1}
SERVO_OUTPUT_RAW {time_usec : 1262123335, port : 0, servo1_raw : 1675, servo2_raw : 0, servo3_raw : 1572, servo4_raw : 0, servo5_raw : 0, servo6_raw : 0, servo7_raw : 0, servo8_raw : 0, servo9_raw : 0, servo10_raw : 0, servo11_raw : 0, servo12_raw : 0, servo13_raw : 0, servo14_raw : 0, servo15_raw : 0, servo16_raw : 0}
RC_CHANNELS {time_boot_ms : 1262123, chancount : 16, chan1_raw : 1484, chan2_raw : 1402, chan3_raw : 1895, chan4_raw : 1532, chan5_raw : 1100, chan6_raw : 1100, chan7_raw : 1100, chan8_raw : 1500, chan9_raw : 1900, chan10_raw : 1500, chan11_raw : 1500, chan12_raw : 1500, chan13_raw : 1500, chan14_raw : 1500, chan15_raw : 1500, chan16_raw : 1500, chan17_raw : 0, chan18_raw : 0, rssi : 255}
RAW_IMU {time_usec : 1262123552, xacc : -139, yacc : -92, zacc : -1031, xgyro : -40, ygyro : -78, zgyro : -706, xmag : 31, ymag : -83, zmag : 297, id : 0, temperature : 3925}
SCALED_IMU2 {time_boot_ms : 1262123, xacc : -136, yacc : -83, zacc : -1038, xgyro : -40, ygyro : -77, zgyro : -703, xmag : 270, ymag : 67, zmag : 297, temperature : 2900}
SCALED_PRESSURE {time_boot_ms : 1262123, press_abs : 1020.7791748046875, press_diff : 0.0, temperature : 3361, temperature_press_diff : 0}
